{
  "picsum": [
    {
      "id": 1,
      "url": "https://picsum.photos/id/10",
      "author": "Paul Jarvis",
      "category": "nature",
      "meta": {
        "width": 2500,
        "height": 1667,
        "unsplash": "6J--NXulQCs"
      }
    },
    {
      "id": 2,
      "url": "https://picsum.photos/id/118",
      "author": "Wojtek Witkowski",
      "category": "city",
      "meta": {
        "width": 2896,
        "height": 1936,
        "unsplash": "1fpyA_z2woY"
      }
    },
    {
      "id": 3,
      "url": "https://picsum.photos/id/123",
      "author": "Mark Doda",
      "category": "closeup",
      "meta": {
        "width": 4928,
        "height": 3264,
        "unsplash": "tS9hJOnmKK8"
      }
    },
    {
      "id": 4,
      "url": "https://picsum.photos/id/142",
      "author": "Vadim Sherbakov",
      "category": "building",
      "meta": {
        "width": 4272,
        "height": 2848,
        "unsplash": "KSyemQIWwP8"
      }
    },
    {
      "id": 5,
      "url": "https://picsum.photos/id/152",
      "author": "Steven Spassov",
      "category": "closeup",
      "meta": {
        "width": 3888,
        "height": 2592,
        "unsplash": "tVIqMgGlAG0"
      }
    },
    {
      "id": 6,
      "url": "https://picsum.photos/id/153",
      "author": "Charlie Foster",
      "category": "closeup",
      "meta": {
        "width": 4763,
        "height": 3155,
        "unsplash": "xpkmxDGPz0Y"
      }
    },
    {
      "id": 7,
      "url": "https://picsum.photos/id/122",
      "author": "Vadim Sherbakov",
      "category": "night",
      "meta": {
        "width": 4147,
        "height": 2756,
        "unsplash": "xS_RzdD5CFE"
      }
    },
    {
      "id": 8,
      "url": "https://picsum.photos/id/193",
      "author": "Vadim Sherbakov",
      "category": "building",
      "meta": {
        "width": 3578,
        "height": 2451,
        "unsplash": "d6ebY-faOO0"
      }
    },
    {
      "id": 9,
      "url": "https://picsum.photos/id/10",
      "author": "Paul Jarvis",
      "category": "nature",
      "meta": {
        "width": 400,
        "height": 255,
        "unsplash": "6J--NXulQCs"
      }
    },
    {
      "id": 10,
      "url": "https://picsum.photos/id/125",
      "author": "Rick Waalders",
      "category": "nature",
      "meta": {
        "width": 1500,
        "height": 1000,
        "unsplash": "3HlgJNdnD7I"
      }
    },
    {
      "id": 11,
      "url": "https://picsum.photos/id/18",
      "author": "Paul Jarvis",
      "category": "closeup",
      "meta": {
        "width": 2500,
        "height": 1667,
        "unsplash": "Ps2n0rShqaM"
      }
    },
    {
      "id": 12,
      "url": "https://picsum.photos/id/181",
      "author": "Nick Turner",
      "category": "closeup",
      "meta": {
        "width": 1920,
        "height": 1189,
        "unsplash": "0EjvnhOkPLM"
      }
    }
  ],
  "campuses": [
    {
      "id": 1,
      "name": "De Ham",
      "image": "de_ham.jpg",
      "address": {
        "street": "Raghenoplein 21bis",
        "city": "Mechelen",
        "zipcode": "2800",
        "geo": {
          "lat": 51.022635,
          "lng": 4.48712
        }
      }
    },
    {
      "id": 2,
      "name": "De Nayer",
      "image": "de_nayer.jpg",
      "address": {
        "street": "Jan De Nayerlaan 5",
        "city": "Sint-Katelijne-Waver",
        "zipcode": "2860",
        "geo": {
          "lat": 51.069491,
          "lng": 4.500975
        }
      }
    },
    {
      "id": 3,
      "name": "De Vest",
      "image": "de_vest.jpg",
      "address": {
        "street": "Zandpoortvest 60",
        "city": "Mechelen",
        "zipcode": "2800",
        "geo": {
          "lat": 51.023723,
          "lng": 4.48794
        }
      }
    },
    {
      "id": 4,
      "name": "Geel",
      "image": "geel.jpg",
      "address": {
        "street": "Kleinhoefstraat 4",
        "city": "Geel",
        "zipcode": "2440",
        "geo": {
          "lat": 51.161358,
          "lng": 4.963583
        }
      }
    },
    {
      "id": 5,
      "name": "Kruidtuin",
      "image": "kruidtuin.jpg",
      "address": {
        "street": "Lange Ridderstraat 44",
        "city": "Mechelen",
        "zipcode": "2800",
        "geo": {
          "lat": 51.024779,
          "lng": 4.484782
        }
      }
    },
    {
      "id": 6,
      "name": "Lier",
      "image": "lier.jpg",
      "address": {
        "street": "Antwerpsestraat 99",
        "city": "Lier",
        "zipcode": "2500",
        "geo": {
          "lat": 51.134006,
          "lng": 4.566427
        }
      }
    },
    {
      "id": 7,
      "name": "Lucas Faydherbe",
      "image": "lucas_faydherbe.jpg",
      "address": {
        "street": "Zandpoortvest 16",
        "city": "Mechelen",
        "zipcode": "2800",
        "geo": {
          "lat": 51.025013,
          "lng": 4.488311
        }
      }
    },
    {
      "id": 8,
      "name": "National",
      "image": "national.jpg",
      "address": {
        "street": "Kronenburgstraat 62-68",
        "city": "Antwerpen",
        "zipcode": "2000",
        "geo": {
          "lat": 51.211847,
          "lng": 4.3980067
        }
      }
    },
    {
      "id": 9,
      "name": "Sanderus",
      "image": "sanderus.jpg",
      "address": {
        "street": "Molenstraat 8",
        "city": "Antwerpen",
        "zipcode": "2018",
        "geo": {
          "lat": 51.2075754,
          "lng": 4.4052135
        }
      }
    },
    {
      "id": 10,
      "name": "Sint Andries",
      "image": "sint_andries.jpg",
      "address": {
        "street": "Sint-Andriesstraat 2",
        "city": "Antwerpen",
        "zipcode": "2000",
        "geo": {
          "lat": 51.2162873,
          "lng": 4.3973036
        }
      }
    },
    {
      "id": 11,
      "name": "Turnhout",
      "image": "turnhout.jpg",
      "address": {
        "street": "Campus Blairon 800",
        "city": "Turnhout",
        "zipcode": "2300",
        "geo": {
          "lat": 51.317004,
          "lng": 4.928719
        }
      }
    },
    {
      "id": 12,
      "name": "Vorselaar",
      "image": "vorselaar.jpg",
      "address": {
        "street": "Lepelstraat 2",
        "city": "Vorselaar",
        "zipcode": "2290",
        "geo": {
          "lat": 51.200987,
          "lng": 4.77261
        }
      }
    }
  ]
}
